City_ID,City,Cloudiness,Country,Date,Humidity,Lat,Lng,Max Temp,Wind Speed
0,saint-philippe,90,CA,1538537640,93,45.36,-73.48,53.06,11.41
1,yellowknife,75,CA,1538536500,73,62.45,-114.38,26.6,14.99
2,punta arenas,20,CL,1538535600,80,-53.16,-70.91,39.2,17.22
3,ahipara,92,NZ,1538538861,78,-35.17,173.16,62.45,0.49
4,busselton,48,AU,1538538861,94,-33.64,115.35,63.44,20.51
5,damaturu,0,NG,1538538861,88,11.75,11.96,69.92,3.4
6,sorong,12,ID,1538538861,100,-0.86,131.25,81.89,4.97
7,vanimo,0,PG,1538538861,100,-2.67,141.3,84.05,6.53
8,ushuaia,75,AR,1538535600,100,-54.81,-68.31,33.8,11.41
9,new norfolk,20,AU,1538537400,44,-42.78,147.06,57.2,21.92
10,rikitea,100,PF,1538538862,100,-23.12,-134.97,67.58,19.84
11,hilo,75,US,1538535360,67,19.71,-155.08,82.04,6.93
12,mataura,0,NZ,1538538862,69,-46.19,168.86,54.98,15.82
13,castro,80,CL,1538538862,86,-42.48,-73.76,43.82,4.97
14,hithadhoo,76,MV,1538538862,100,-0.6,73.08,80.36,21.18
15,barrow,0,AR,1538538863,70,-38.31,-60.23,43.91,5.41
16,cockburn town,68,TC,1538538863,99,21.46,-71.14,82.88,7.87
17,fukue,75,JP,1538535600,56,35.03,136.69,73.4,3.36
18,albany,90,US,1538535960,89,42.65,-73.75,66.02,12.75
19,kamina,12,CD,1538538863,79,-8.74,25.0,62.36,2.62
20,thompson,40,CA,1538535600,58,55.74,-97.86,28.4,6.87
21,kununurra,0,AU,1538537400,30,-15.77,128.74,95.0,12.75
22,nikolskoye,90,RU,1538535600,93,59.7,30.79,42.8,4.47
23,cape town,0,ZA,1538535600,54,-33.93,18.42,55.4,23.04
24,kruisfontein,92,ZA,1538538864,83,-34.0,24.73,59.66,11.12
25,kizukuri,40,JP,1538535600,52,40.81,140.39,68.0,12.75
26,abha,0,SA,1538535600,36,18.22,42.5,60.8,1.72
27,samarai,44,PG,1538538864,99,-10.62,150.67,78.02,18.72
28,esperance,20,TT,1538535600,94,10.24,-61.45,77.0,5.19
29,talpa,5,MX,1538534400,74,28.83,-111.63,80.6,4.7
30,lasa,20,CY,1538537400,72,34.92,32.53,69.8,3.36
31,veraval,90,FR,1538537400,93,49.65,0.71,60.8,9.17
32,jamestown,76,AU,1538538865,66,-33.21,138.6,63.89,11.01
33,sovetskiy,80,RU,1538538865,96,56.76,48.47,45.8,12.68
34,port alfred,88,ZA,1538538865,99,-33.59,26.89,59.57,16.49
35,souillac,90,FR,1538537400,82,45.6,-0.6,59.0,2.24
36,ribeira grande,64,PT,1538538866,100,38.52,-28.7,71.72,8.1
37,katsuura,40,JP,1538535600,64,33.93,134.5,73.4,5.82
38,chuy,0,UY,1538538866,93,-33.69,-53.46,46.97,4.18
39,pevek,20,RU,1538538866,91,69.7,170.27,44.0,8.66
40,rongcheng,0,CN,1538538866,57,37.16,122.42,77.39,3.85
41,villa carlos paz,0,AR,1538535600,70,-31.42,-64.5,46.4,6.93
42,bluff,0,AU,1538538866,30,-23.58,149.07,82.34,8.66
43,almaznyy,12,RU,1538538866,91,48.03,40.04,52.55,2.95
44,trancoso,0,PT,1538538644,76,40.78,-7.35,42.11,3.85
45,sao geraldo do araguaia,0,BR,1538538867,90,-6.4,-48.55,74.51,2.95
46,pingliang,0,CN,1538538867,38,35.54,106.68,63.17,5.64
47,kapaa,40,US,1538535360,74,22.08,-159.32,84.02,6.93
48,prince rupert,1,CA,1538535600,77,54.32,-130.32,44.6,5.82
49,hobart,20,AU,1538537400,44,-42.88,147.33,57.2,21.92
50,omboue,64,GA,1538538867,100,-1.57,9.26,78.02,6.2
51,atuona,92,PF,1538538867,100,-9.8,-139.03,78.11,11.34
52,chokurdakh,36,RU,1538538867,98,70.62,147.9,36.08,6.98
53,bethel,90,US,1538535180,86,60.79,-161.76,48.92,11.41
54,hermanus,36,ZA,1538538868,85,-34.42,19.24,49.85,6.42
55,vaini,48,IN,1538538868,98,15.34,74.49,73.52,3.18
56,puerto ayora,8,EC,1538538869,100,-0.74,-90.35,71.0,10.56
57,hokitika,68,NZ,1538538869,95,-42.72,170.96,52.01,6.98
58,ponta do sol,68,BR,1538538869,85,-20.63,-46.0,65.87,2.51
59,omsukchan,88,RU,1538538869,81,62.53,155.8,32.21,4.85
60,longyearbyen,75,NO,1538535000,79,78.22,15.63,28.4,3.36
61,vardo,75,US,1538536500,71,39.62,-77.74,77.0,4.7
62,khani,75,GE,1538535600,93,41.96,42.96,64.4,2.24
63,port macquarie,0,AU,1538535600,50,-31.43,152.91,75.2,12.75
64,mar del plata,24,AR,1538538869,52,-46.43,-67.52,46.61,17.27
65,berlevag,75,NO,1538535000,64,70.86,29.09,39.2,14.99
66,faanui,36,PF,1538538870,100,-16.48,-151.75,77.21,27.56
67,banda aceh,0,ID,1538538870,94,5.56,95.32,81.44,2.73
68,gazojak,0,TM,1538538870,51,41.19,61.4,60.11,7.54
69,pangnirtung,64,CA,1538538870,85,66.15,-65.72,22.94,6.64
70,teguise,0,ES,1538537400,88,29.06,-13.56,69.8,6.93
71,hamilton,90,CA,1538535960,93,43.26,-79.87,53.6,6.93
72,adre,24,TD,1538538870,65,13.47,22.2,73.52,6.87
73,ruidoso,75,US,1538536500,82,33.33,-105.67,76.46,5.82
74,iqaluit,90,CA,1538535600,92,63.75,-68.52,30.2,16.11
75,provideniya,90,RU,1538535600,87,64.42,-173.23,50.0,22.37
76,innisfail,90,CA,1538535600,92,52.02,-113.95,26.6,2.24
77,kukushtan,75,RU,1538535600,66,57.65,56.5,48.2,11.18
78,lompoc,75,US,1538535480,67,34.64,-120.46,68.0,6.93
79,narsaq,80,GL,1538535000,43,60.91,-46.05,35.6,6.93
80,ambon,90,FR,1538537400,87,47.55,-2.56,59.0,3.36
81,dudinka,68,RU,1538538655,90,69.41,86.18,32.84,8.77
82,cherskiy,44,RU,1538538871,69,68.75,161.3,44.36,2.39
83,labuhan,20,ID,1538538871,72,-2.54,115.51,85.31,3.18
84,bredasdorp,80,ZA,1538535600,81,-34.53,20.04,44.6,2.24
85,grand gaube,40,MU,1538535600,82,-20.01,57.66,68.0,2.24
86,verkhnevilyuysk,88,RU,1538538872,98,63.45,120.31,40.04,7.31
87,tasiilaq,92,GL,1538535000,59,65.61,-37.64,35.6,9.17
88,zhangye,0,CN,1538538872,55,38.94,100.46,57.41,3.85
89,norman wells,40,CA,1538535600,95,65.28,-126.83,32.0,4.7
90,sola,75,NO,1538536800,87,58.89,5.65,46.4,17.22
91,akdepe,0,TM,1538535600,55,42.05,59.39,62.6,11.41
92,taoudenni,44,ML,1538538872,36,22.68,-3.98,73.16,2.73
93,garowe,92,SO,1538538672,98,8.41,48.48,68.66,4.63
94,lavrentiya,92,RU,1538538873,90,65.58,-170.99,46.16,27.89
95,vao,92,EE,1538538873,100,59.1,26.19,42.92,7.54
96,homer,90,US,1538535180,73,59.64,-151.54,53.06,13.69
97,lebu,0,ET,1538538873,86,8.96,38.73,42.11,3.18
98,nanortalik,92,GL,1538538873,100,60.14,-45.24,33.56,2.17
99,gornoye loo,75,RU,1538535600,88,43.72,39.61,62.6,6.71
100,abaza,92,RU,1538538873,81,52.65,90.1,37.34,6.53
101,san jacinto,90,US,1538535480,32,33.78,-116.96,84.92,9.17
102,upernavik,0,GL,1538538874,100,72.79,-56.15,29.06,10.22
103,roma,0,IT,1538536800,72,41.89,12.48,64.4,8.05
104,kitsuki,20,JP,1538535600,69,33.42,131.62,73.4,10.29
105,carnarvon,0,ZA,1538538874,80,-30.97,22.13,41.66,17.16
106,george,20,NG,1538535600,94,6.63,3.35,77.0,2.24
107,husavik,92,CA,1538538874,100,50.56,-96.99,40.31,12.12
108,clyde river,90,CA,1538537640,100,70.47,-68.59,23.0,5.82
109,sawtell,0,AU,1538537400,60,-30.38,153.1,71.6,21.92
110,baykit,80,RU,1538538875,71,61.68,96.39,34.28,12.24
111,pindushi,36,RU,1538538875,100,62.92,34.58,37.61,8.43
112,kloulklubed,75,PW,1538535000,74,7.04,134.26,86.0,8.05
113,kushima,20,JP,1538535600,69,31.5,131.29,75.2,10.29
114,poum,0,MK,1538538875,90,41.28,20.71,46.79,2.17
115,grants pass,90,US,1538536320,96,42.44,-123.33,71.96,5.82
116,yar-sale,24,RU,1538538875,100,66.83,70.83,34.91,6.76
117,chapais,75,CA,1538535600,86,49.78,-74.86,39.2,5.82
118,khatanga,80,RU,1538538876,100,71.98,102.47,32.21,6.31
119,san vicente,20,SV,1538538600,100,13.64,-88.78,77.0,3.36
120,geraldton,90,CA,1538535600,87,49.72,-86.95,44.6,13.87
121,aswan,0,EG,1538535600,30,24.09,32.9,82.4,5.82
122,beringovskiy,92,RU,1538538877,96,63.05,179.32,46.88,20.51
123,ust-tsilma,80,RU,1538538877,96,65.44,52.15,42.65,7.43
124,moron,40,VE,1538535600,88,10.49,-68.2,77.0,2.39
125,dwarka,20,IN,1538537400,54,28.58,77.04,84.2,4.18
126,la ronge,5,CA,1538535600,70,55.1,-105.3,32.0,6.93
127,tuatapere,0,NZ,1538538877,89,-46.13,167.69,51.29,17.83
128,bowen,0,AU,1538535600,36,-20.01,148.25,80.6,16.11
129,dikson,32,RU,1538538878,100,73.51,80.55,37.88,22.41
130,butaritari,0,KI,1538538878,100,3.07,172.79,84.95,5.08
131,mayo,40,CA,1538535600,63,63.59,-135.9,28.4,2.24
132,avarua,40,CK,1538535600,53,-21.21,-159.78,73.4,17.22
133,urengoy,44,RU,1538538878,87,65.96,78.37,28.25,6.98
134,winchester,0,GB,1538535000,93,51.06,-1.31,55.4,5.82
135,kathmandu,20,NP,1538536800,68,27.71,85.32,71.6,2.24
136,yangambi,56,CD,1538538879,98,0.77,24.47,71.0,1.95
137,ancud,48,CL,1538538879,89,-41.87,-73.83,40.58,4.07
138,zyryanskoye,88,RU,1538538879,84,56.83,86.62,41.12,8.77
139,east london,75,ZA,1538536920,87,-33.02,27.91,53.6,13.87
140,yashan,0,CN,1538538879,68,30.81,118.02,71.99,3.85
141,luderitz,0,NA,1538538879,77,-26.65,15.16,56.87,17.49
142,zyryanka,0,RU,1538538879,72,65.73,150.89,37.25,2.62
143,anadyr,90,RU,1538535600,100,64.73,177.51,48.2,29.08
144,humberto de campos,0,BR,1538538880,92,-2.6,-43.46,79.55,17.49
145,braganca,8,BR,1538538880,84,-1.05,-46.77,77.39,7.43
146,rocha,0,UY,1538538880,86,-34.48,-54.34,40.76,4.74
147,ayan,8,TR,1538538880,85,40.67,33.6,37.25,2.06
148,kabalo,68,CD,1538538880,81,-6.05,26.92,74.51,7.87
149,victoria,75,BN,1538537400,83,5.28,115.24,82.4,3.36
150,nemuro,20,JP,1538535600,43,43.32,145.57,69.8,17.22
151,mnogovershinnyy,64,RU,1538538881,53,53.94,139.92,48.68,7.76
152,struer,76,DK,1538536800,76,56.48,8.6,48.2,13.87
153,sitka,8,US,1538538881,50,37.17,-99.65,78.29,18.84
154,havoysund,76,NO,1538538820,100,71.0,24.66,38.42,12.8
155,bundaberg,0,AU,1538538881,91,-24.87,152.35,71.45,12.57
156,tanout,0,NE,1538538881,62,14.97,8.88,75.77,3.51
157,namibe,12,AO,1538538881,100,-15.19,12.15,66.86,3.96
158,mangalam,40,IN,1538537400,74,12.6,80.07,87.8,6.93
159,ozernovskiy,80,RU,1538538882,85,51.5,156.52,49.76,14.58
160,kahului,40,US,1538535360,65,20.89,-156.47,86.0,13.87
161,saskylakh,76,RU,1538538882,94,71.97,114.09,26.09,4.07
162,flinders,90,AU,1538535600,46,-34.58,150.85,71.6,19.46
163,cabo san lucas,20,MX,1538534820,78,22.89,-109.91,78.8,5.82
164,pangai,75,TO,1538535600,69,-19.8,-174.35,78.8,20.8
165,saint-augustin,90,FR,1538537400,87,44.83,-0.61,57.2,1.12
166,bucerias,40,MX,1538534520,83,20.76,-105.33,84.2,6.08
167,energetik,12,RU,1538538883,96,51.74,58.8,34.28,5.19
168,aguas vermelhas,8,BR,1538538883,90,-15.75,-41.46,65.6,9.55
169,saldanha,0,PT,1538538883,70,41.42,-6.55,44.36,5.53
170,biak,64,ID,1538538883,82,-0.91,122.88,81.62,5.97
171,cheremushskiy,76,RU,1538538883,95,61.27,47.26,43.46,9.1
172,benghazi,92,LY,1538538883,80,32.12,20.07,84.77,16.04
173,guerrero negro,8,MX,1538538883,98,27.97,-114.04,67.13,2.17
174,adrar,0,DZ,1538538884,39,27.87,-0.29,66.32,6.64
175,bushehr,0,IR,1538535600,78,28.97,50.84,80.6,3.74
176,beira,0,ES,1538537400,93,43.2,-8.36,55.4,6.93
177,severo-kurilsk,80,RU,1538538884,97,50.68,156.12,48.68,18.39
178,leningradskiy,32,RU,1538538607,85,69.38,178.42,42.47,15.03
179,rio gallegos,20,AR,1538535600,80,-51.62,-69.22,39.2,23.04
180,vallenar,12,CL,1538538624,71,-28.58,-70.76,50.39,2.06
181,portland,20,US,1538535360,57,45.52,-122.67,60.08,18.34
182,vila velha,75,BR,1538535600,78,-3.71,-38.6,78.8,13.87
183,hemsedal,0,NO,1538538843,90,60.86,8.55,23.39,4.18
184,asyut,0,EG,1538535600,57,27.18,31.19,75.2,6.93
185,torbay,20,CA,1538535600,86,47.66,-52.73,39.2,2.24
186,tigzirt,100,DZ,1538538885,85,36.57,4.2,57.5,4.74
187,santa isabel,56,CO,1538538885,93,4.71,-75.1,65.24,2.17
188,salalah,0,OM,1538535000,56,17.01,54.1,71.6,4.7
189,batagay-alyta,0,RU,1538538885,86,67.8,130.41,19.43,4.07
190,cataguases,20,BR,1538538885,95,-21.39,-42.7,65.96,2.39
191,athabasca,0,CA,1538538885,49,54.72,-113.29,26.72,8.77
192,talnakh,0,RU,1538538886,100,69.49,88.39,31.67,12.01
193,mezen,92,RU,1538538886,98,65.85,44.24,43.55,6.08
194,vale da amoreira,0,PT,1538537400,21,38.65,-9.04,69.8,9.17
195,gelemso,12,ET,1538538886,85,8.81,40.52,51.02,2.95
196,acajutla,80,SV,1538538886,97,13.59,-89.83,73.7,3.85
197,tuktoyaktuk,90,CA,1538535600,92,69.44,-133.03,23.0,10.29
198,northam,0,GB,1538535000,100,51.04,-4.21,53.6,6.93
199,bastrop,1,US,1538537700,98,32.78,-91.91,74.48,2.51
200,salinopolis,56,BR,1538538887,95,-0.61,-47.36,81.08,15.82
201,gat,36,SN,1538538887,97,14.69,-16.54,75.59,2.95
202,casper,1,US,1538535180,50,42.87,-106.31,68.0,28.86
203,medzilaborce,20,SK,1538538887,100,49.27,21.9,34.19,2.73
204,mandalgovi,0,MN,1538538887,60,45.76,106.27,51.47,9.55
205,kulhudhuffushi,92,MV,1538538887,100,6.62,73.07,78.56,13.13
206,yenagoa,68,NG,1538538887,95,4.92,6.26,73.52,3.96
207,kutum,100,SD,1538538887,28,14.2,24.66,83.24,8.21
208,bradford,0,GB,1538536800,81,53.79,-1.75,51.8,9.17
209,lagoa,40,PT,1538537400,88,37.14,-8.45,69.8,8.05
210,mastic beach,90,US,1538537880,89,40.77,-72.85,66.92,5.82
211,dingle,24,PH,1538538888,81,11.0,122.67,84.95,3.85
212,bonavista,0,CA,1538538888,100,48.65,-53.11,41.57,6.53
213,escondido,20,US,1538535360,65,33.12,-117.08,71.06,4.7
214,manzhouli,0,CN,1538538888,46,49.6,117.43,62.36,4.52
215,mount gambier,76,AU,1538538888,90,-37.83,140.78,58.85,7.2
216,oranjestad,20,AW,1538535600,79,12.52,-70.03,84.2,16.11
217,klaksvik,0,FO,1538536800,86,62.23,-6.59,37.4,1.12
218,fairbanks,1,US,1538535480,8,64.84,-147.72,53.06,4.18
219,kavaratti,0,IN,1538538889,100,10.57,72.64,83.24,4.41
220,port moresby,40,PG,1538535600,66,-9.47,147.16,84.2,25.28
221,mahebourg,40,MU,1538535600,82,-20.41,57.7,68.0,2.24
222,viedma,8,AR,1538538889,52,-40.81,-62.99,39.32,5.64
223,macklin,88,CA,1538538889,70,52.34,-109.94,30.77,5.19
224,taormina,40,IT,1538536800,93,37.85,15.29,66.2,4.7
225,srednekolymsk,88,RU,1538538889,73,67.46,153.71,35.45,4.52
226,hualmay,32,PE,1538538889,92,-11.1,-77.61,58.67,1.39
227,chiradzulu,8,MW,1538538889,91,-15.7,35.18,59.21,3.06
228,fortuna,0,ES,1538537400,82,38.18,-1.13,60.8,1.12
229,beloha,0,MG,1538538890,77,-25.17,45.06,55.16,8.77
230,sao filipe,12,CV,1538538890,96,14.9,-24.5,78.65,12.8
231,le port,0,FR,1538538890,82,42.87,1.37,35.63,2.17
232,qaanaaq,24,GL,1538538890,100,77.48,-69.36,22.58,7.54
233,llanes,0,ES,1538538891,73,43.42,-4.75,37.88,2.06
234,taltal,44,CL,1538538891,89,-25.41,-70.49,54.26,2.39
235,opuwo,0,NA,1538538891,31,-18.06,13.84,64.61,6.53
236,nata,20,CY,1538537400,72,34.78,32.57,69.8,3.36
237,acapulco,40,MX,1538534700,79,16.86,-99.88,84.2,10.29
238,druzhba,8,UA,1538538891,92,49.36,25.65,41.48,7.2
239,cidreira,92,BR,1538538891,100,-30.17,-50.22,61.28,11.34
240,freeport,80,BS,1538538759,99,26.54,-78.7,81.98,17.05
241,kamenka,80,RU,1538538892,97,53.19,44.05,52.28,7.31
242,colares,0,PT,1538537400,21,38.8,-9.45,69.8,9.17
243,saint anthony,1,US,1538535360,4,43.97,-111.68,66.92,11.41
244,hasaki,75,JP,1538535600,78,35.73,140.83,71.6,10.29
245,am timan,56,TD,1538538892,80,11.04,20.28,73.25,3.51
246,causapscal,88,CA,1538538892,86,48.35,-67.23,43.19,7.76
247,okato,0,NZ,1538538892,98,-39.19,173.88,56.15,9.66
248,aklavik,40,CA,1538535600,79,68.22,-135.01,28.4,8.05
249,vatne,92,NO,1538536800,81,62.56,6.61,44.6,20.8
250,weyburn,92,CA,1538538880,92,49.67,-103.85,33.2,8.43
251,riyadh,0,SA,1538535600,21,24.63,46.72,71.6,2.24
252,dunedin,20,NZ,1538538893,78,-45.87,170.5,53.81,2.39
253,bandarbeyla,48,SO,1538538617,95,9.49,50.81,76.4,11.68
254,shchelkun,0,RU,1538535600,87,56.3,60.95,42.8,4.47
255,tiksi,56,RU,1538538893,96,71.64,128.87,29.24,10.56
256,emerald,0,AU,1538538893,34,-23.53,148.16,81.71,8.66
257,heihe,0,RU,1538535600,20,50.24,127.51,66.2,11.18
258,port hedland,0,AU,1538537400,16,-20.31,118.58,98.6,9.17
259,taksimo,20,RU,1538538894,60,56.36,114.84,49.13,1.61
260,constitucion,5,MX,1538534940,63,23.99,-104.67,66.2,3.36
261,sept-iles,75,CA,1538535600,86,50.2,-66.38,33.8,6.93
262,cervo,48,BR,1538538894,88,-22.19,-46.24,63.62,2.73
263,feltre,0,IT,1538536800,93,46.02,11.91,51.8,2.24
264,tigil,88,RU,1538538894,70,57.8,158.67,46.79,14.7
265,nouadhibou,88,MR,1538538894,63,20.93,-17.03,79.91,17.72
266,tyrma,0,RU,1538538894,63,50.04,132.17,50.48,7.2
267,whitecourt,75,CA,1538535600,63,54.14,-115.68,28.4,6.93
268,goure,0,NE,1538538895,60,13.98,10.27,76.4,4.18
269,totness,1,US,1538536500,100,33.74,-80.8,73.04,6.64
270,amapa,75,HN,1538539200,88,15.09,-87.97,75.2,4.7
271,morondava,0,MG,1538538895,100,-20.3,44.28,67.22,4.29
272,san policarpo,80,PH,1538538895,100,12.18,125.51,81.08,9.55
273,karratha,20,AU,1538538895,23,-20.74,116.85,92.96,8.77
274,camopi,0,GF,1538538895,79,3.17,-52.33,76.76,4.18
275,tsuruga,20,JP,1538538896,76,35.64,136.07,71.72,3.06
276,san patricio,88,PY,1538538896,94,-26.98,-56.83,64.52,4.97
277,mehamn,75,NO,1538535000,64,71.03,27.85,39.2,14.99
278,gold coast,0,AU,1538537400,53,-28.0,153.41,71.6,13.87
279,saint george,0,GR,1538536800,82,39.45,22.34,57.2,4.7
280,sarkand,0,KZ,1538538896,59,45.41,79.91,51.56,6.53
281,nueva loja,20,EC,1538538896,90,0.08,-76.88,76.4,2.39
282,bud,56,NO,1538536800,81,62.91,6.91,44.6,11.41
283,te anau,0,NZ,1538538897,70,-45.41,167.72,46.97,11.56
284,bilibino,0,RU,1538538897,87,68.06,166.44,34.91,3.06
285,balsas,8,BR,1538538897,30,-7.53,-46.04,83.51,8.43
286,yendi,68,GH,1538538897,89,9.45,0.0,74.96,6.64
287,linoan,20,PH,1538538897,81,7.67,125.98,85.49,5.08
288,minot,90,US,1538535660,95,48.23,-101.3,48.92,13.87
289,havre,90,US,1538535180,92,48.55,-109.68,35.96,14.99
290,nkan,48,GQ,1538538897,94,2.26,11.22,69.92,2.17
291,santa lucia,40,IT,1538535300,82,39.93,9.66,60.8,10.29
292,batemans bay,8,AU,1538538898,55,-35.71,150.18,74.06,5.53
293,paamiut,80,GL,1538538898,97,61.99,-49.67,37.97,8.21
294,sao joao da barra,8,BR,1538538898,94,-21.64,-41.05,76.58,29.35
295,galesong,20,ID,1538537400,41,-5.32,119.37,93.2,11.41
296,half moon bay,90,US,1538538000,88,37.46,-122.43,73.04,5.82
297,yatou,40,CM,1538535600,94,3.63,9.81,77.0,2.24
298,port lincoln,32,AU,1538538899,90,-34.72,135.86,60.56,15.03
299,san andres,56,PH,1538538899,100,13.32,122.68,82.88,6.42
300,quarai,88,BR,1538538899,87,-30.39,-56.45,58.76,9.44
301,svetlogorsk,48,RU,1538535600,69,53.14,59.15,35.6,6.71
302,sisophon,20,KH,1538538899,81,13.59,102.97,83.24,10.56
303,mangrol,0,IN,1538538899,53,25.33,76.51,81.71,6.31
304,dunmore east,36,IE,1538538900,99,52.15,-6.99,54.98,9.66
305,tsaratanana,0,MG,1538538900,90,-16.8,47.65,57.14,6.53
306,qiqihar,0,CN,1538538900,49,47.35,123.91,64.61,5.41
307,puerto narino,75,CO,1538535600,100,-3.77,-70.38,75.2,2.24
308,astara,40,AZ,1538535600,100,38.42,48.87,60.8,1.83
309,chimoio,0,MZ,1538535600,100,-19.11,33.48,60.8,4.7
310,alenquer,20,BR,1538535600,94,-1.95,-54.74,77.0,3.36
311,biscarrosse,90,FR,1538537400,93,44.41,-1.18,57.2,3.06
312,vaitape,8,PF,1538538900,100,-16.52,-151.75,76.4,26.78
313,toyooka,20,JP,1538535600,43,35.55,134.82,73.4,2.24
314,quelimane,0,MZ,1538538901,90,-17.88,36.89,62.63,3.18
315,pacific grove,75,US,1538537820,75,36.62,-121.92,64.94,4.7
316,arraial do cabo,12,BR,1538538901,94,-22.97,-42.02,73.52,12.12
317,alencon,90,FR,1538537400,77,48.43,0.08,60.8,4.7
318,margate,20,AU,1538537400,44,-43.03,147.26,57.2,21.92
319,winnemucca,1,US,1538535360,49,40.97,-117.74,62.06,9.17
320,maragogi,92,BR,1538538901,98,-9.01,-35.22,72.98,4.97
321,carutapera,8,BR,1538538901,82,-1.2,-46.02,79.64,11.01
322,ambilobe,0,MG,1538538902,77,-13.19,49.05,64.61,4.41
323,egvekinot,88,RU,1538538902,98,66.32,-179.17,45.71,7.2
324,demidov,20,RU,1538538902,93,55.27,31.52,43.19,10.56
325,sayyan,0,YE,1538538902,54,15.17,44.32,43.01,3.29
326,virginia beach,1,US,1538536500,84,36.85,-75.98,74.3,10.29
327,kushiro,20,JP,1538535600,63,43.11,144.15,64.4,12.75
328,evensk,80,RU,1538538902,97,61.92,159.24,46.52,11.23
329,letlhakane,0,BW,1538538902,59,-21.42,25.59,51.2,2.73
330,komsomolskiy,88,RU,1538538903,95,67.55,63.78,32.39,13.47
331,fare,48,PF,1538538903,100,-16.7,-151.02,76.31,26.66
332,novoanninskiy,24,RU,1538538903,94,50.53,42.67,50.21,3.4
333,port blair,8,IN,1538538903,100,11.67,92.75,85.04,4.18
334,vestmanna,0,FO,1538536800,86,62.16,-7.17,37.4,1.12
335,gamba,24,CN,1538538903,59,28.28,88.52,31.94,2.73
336,porto novo,0,BR,1538535600,83,-23.68,-45.44,69.8,1.12
337,rabo de peixe,40,PT,1538537400,88,37.8,-25.58,69.8,12.75
338,boueni,20,YT,1538537400,83,-12.9,45.08,75.2,4.7
339,fairmont,1,US,1538536500,88,40.64,-97.59,74.3,8.05
340,kodiak,1,US,1538535180,76,39.95,-94.76,77.0,8.05
341,bemidji,90,US,1538536500,91,47.48,-94.89,48.02,11.41
342,trelew,0,AR,1538538904,34,-43.25,-65.31,44.72,10.78
343,krasnaya polyana,92,UA,1538538904,92,45.47,34.13,58.94,5.97
344,bolobo,12,CD,1538538904,100,-2.17,16.23,69.92,2.28
345,benguela,56,AO,1538538905,100,-12.58,13.4,68.21,2.28
346,puri,40,ID,1538535600,55,-7.54,112.45,87.8,9.17
347,rodrigues alves,0,BR,1538535600,88,-7.74,-72.65,77.0,2.24
348,oistins,40,BB,1538535600,88,13.07,-59.53,80.6,8.05
349,alofi,75,NU,1538535600,65,-19.06,-169.92,78.8,16.11
350,auki,0,NG,1538538905,94,12.18,6.51,72.98,8.43
351,fort nelson,75,CA,1538535600,55,58.81,-122.69,35.6,2.24
352,hrubieszow,68,PL,1538538905,74,50.8,23.89,43.82,19.28
353,sortland,24,NO,1538536800,100,68.69,15.42,39.2,3.36
354,zhengjiatun,0,CN,1538538906,62,43.51,123.51,65.33,4.63
355,kavieng,56,PG,1538538906,100,-2.57,150.8,85.04,1.39
356,sorland,40,NO,1538535000,80,67.67,12.69,39.2,6.93
357,vestmannaeyjar,92,IS,1538538906,96,63.44,-20.27,41.3,3.96
358,puerto del rosario,0,ES,1538537400,83,28.5,-13.86,73.4,10.29
359,deputatskiy,80,RU,1538538906,87,69.3,139.9,25.55,11.01
360,altay,88,CN,1538538906,92,47.83,88.13,30.41,3.18
361,najran,0,SA,1538535600,53,17.54,44.22,66.2,2.24
362,farafangana,92,MG,1538538906,100,-22.82,47.83,70.37,9.1
363,ulaangom,92,MN,1538538907,80,49.98,92.07,29.69,7.65
364,coquimbo,0,CL,1538535600,87,-29.95,-71.34,51.8,8.66
365,hami,36,CN,1538538907,40,42.84,93.51,64.52,6.31
366,ouadda,32,CF,1538538907,97,8.07,22.4,66.05,7.09
367,sukpak,88,RU,1538538907,70,51.65,94.27,42.74,15.26
368,sinnamary,8,GF,1538538907,91,5.38,-52.96,82.43,14.14
369,yeniseysk,48,RU,1538538907,68,58.45,92.17,38.96,3.74
370,champaign,40,US,1538537700,91,40.12,-88.24,68.0,3.36
371,flin flon,36,CA,1538538908,83,54.77,-101.88,35.99,7.65
372,olinda,75,EC,1538535600,83,-2.03,-79.75,71.6,13.87
373,dawson creek,1,CA,1538535600,63,55.76,-120.23,28.4,3.36
374,nyazepetrovsk,44,RU,1538538908,80,56.06,59.6,40.22,6.76
375,san juan,75,PH,1538535600,66,14.6,121.03,86.0,6.93
376,basoko,64,CD,1538538909,100,1.23,23.61,70.28,4.41
377,sheltozero,76,RU,1538538909,100,61.37,35.37,43.46,2.95
378,yulara,40,AU,1538535600,32,-25.24,130.99,80.6,16.11
379,the valley,20,AI,1538535600,78,18.22,-63.06,82.4,2.24
380,alyangula,0,AU,1538538909,84,-13.85,136.42,83.33,14.58
381,muzhi,36,RU,1538538909,87,65.4,64.7,26.45,6.2
382,alice springs,0,AU,1538537400,9,-23.7,133.88,91.4,16.11
383,viloco,0,BO,1538538909,82,-16.87,-67.5,48.41,1.61
384,pochutla,8,MX,1538538910,100,15.74,-96.47,83.69,9.78
385,sambava,64,MG,1538538910,100,-14.27,50.17,72.44,14.47
386,celestun,44,MX,1538538910,97,20.87,-90.4,83.78,18.39
387,kaitangata,0,NZ,1538538910,62,-46.28,169.85,56.24,11.45
388,port elizabeth,75,US,1538538000,68,39.31,-74.98,75.02,4.7
389,umm kaddadah,0,SD,1538538910,68,13.6,26.69,74.06,9.66
390,majene,0,ID,1538538910,90,-3.54,118.97,84.5,13.47
391,shelburne,90,CA,1538536920,100,44.08,-80.2,51.8,2.24
392,pringsewu,0,ID,1538538910,62,-5.36,104.98,87.56,2.95
393,arosa,0,CH,1538536800,96,46.78,9.68,42.8,2.24
394,kaeo,24,NZ,1538538911,68,-35.1,173.78,63.44,8.1
395,coihaique,90,CL,1538535600,56,-45.58,-72.07,44.6,4.7
396,severobaykalsk,64,RU,1538538911,64,55.65,109.32,49.49,1.05
397,la palma,88,CO,1538538911,100,5.36,-74.39,66.68,1.16
398,matagami,92,NG,1538538912,97,9.67,8.4,68.66,3.96
399,georgetown,0,GY,1538535600,100,6.8,-58.16,75.2,2.24
400,gornopravdinsk,48,RU,1538538912,89,60.06,69.92,42.92,5.97
401,lorengau,36,PG,1538538912,97,-2.02,147.27,85.4,4.41
402,cambara,8,BR,1538538913,94,-23.05,-50.07,67.22,3.62
403,lufilufi,88,WS,1538538913,100,-13.87,-171.6,81.26,26.78
404,axim,64,GH,1538538913,99,4.87,-2.24,78.11,8.99
405,sibu,75,MY,1538535600,79,2.29,111.83,84.2,4.7
406,vilyuysk,92,RU,1538538913,98,63.75,121.63,39.68,5.75
407,rondonopolis,32,BR,1538538913,98,-16.46,-54.64,69.11,2.73
408,ventanas,0,CL,1538535600,71,-32.74,-71.48,55.4,2.24
409,shymkent,0,KZ,1538535600,28,42.31,69.59,69.8,6.71
410,saint-joseph,0,FR,1538537400,71,43.56,6.97,59.0,4.7
411,fredericksburg,1,US,1538536500,81,30.28,-98.87,76.46,10.0
412,peniche,0,PT,1538537400,21,39.36,-9.38,69.8,9.17
413,ketchikan,1,US,1538535360,13,55.34,-131.65,48.92,5.97
414,novikovo,12,UA,1538538914,100,45.05,34.56,54.17,5.64
415,hofn,92,IS,1538538914,100,64.25,-15.21,40.49,10.78
416,bubaque,20,GW,1538538914,100,11.28,-15.83,80.36,10.78
417,meulaboh,32,ID,1538538914,100,4.14,96.13,81.89,2.62
418,wakkanai,40,JP,1538535600,55,45.41,141.67,64.4,25.28
419,ziro,90,IN,1538537400,94,27.54,93.82,73.4,5.82
420,siquirres,92,CR,1538538915,99,10.1,-83.51,75.5,2.17
421,kargasok,92,RU,1538538915,79,59.06,80.87,43.19,5.86
422,kuala selangor,75,MY,1538535600,70,3.34,101.25,86.0,3.36
423,nyurba,64,RU,1538538915,84,63.29,118.35,42.11,9.33
424,oriximina,0,BR,1538538915,58,-1.77,-55.87,84.77,5.19
425,sopelana,0,ES,1538537400,87,43.38,-2.98,50.0,4.7
426,ratnagiri,92,IN,1538538686,100,16.98,73.3,79.64,0.49
427,zambrow,88,PL,1538538915,92,52.99,22.24,47.51,23.2
428,ituango,48,CO,1538538915,100,7.17,-75.76,65.87,1.5
429,coari,32,BR,1538538916,92,-4.09,-63.14,78.02,2.17
430,airai,36,TL,1538538916,47,-8.93,125.41,83.51,1.16
431,wanning,75,AT,1538536800,76,48.64,13.53,51.8,14.99
432,kabale,88,UG,1538538916,100,-1.26,29.99,57.86,1.83
433,tezu,24,IN,1538538916,78,27.93,96.16,68.12,0.72
434,hay river,75,CA,1538535600,58,60.82,-115.79,30.2,8.05
435,bukama,44,CD,1538538916,73,-9.2,25.85,68.84,3.96
436,tazovskiy,24,RU,1538538916,78,67.47,78.7,25.01,3.29
437,menongue,0,AO,1538538917,37,-14.66,17.68,66.23,5.41
438,okhotsk,8,RU,1538538917,82,59.36,143.24,46.79,4.18
439,quanzhou,0,CN,1538535600,39,24.9,118.59,82.4,13.42
440,sosnogorsk,92,RU,1538538917,98,63.59,53.93,42.56,7.65
441,warrington,90,GB,1538536800,93,53.39,-2.59,55.4,13.87
442,cooma,0,AU,1538538917,58,-36.24,149.13,67.04,13.35
443,kasongo-lunda,80,CD,1538538918,99,-6.48,16.82,66.86,2.73
444,tual,20,ID,1538538918,96,-5.67,132.75,81.62,12.12
445,calvinia,0,ZA,1538538918,68,-31.47,19.78,45.62,14.14
446,caboolture,20,AU,1538537400,49,-27.08,152.95,80.6,11.41
447,san cristobal,40,EC,1538535600,87,-0.39,-78.55,53.6,2.24
448,gravdal,88,NO,1538536800,81,59.79,5.78,46.4,17.22
449,qaqortoq,92,GL,1538535000,43,60.72,-46.03,35.6,6.93
450,ostrovnoy,80,RU,1538538919,82,68.05,39.51,28.7,7.87
451,pangoa,44,PE,1538538919,97,-12.12,-73.0,64.61,2.62
452,kedrovyy,0,RU,1538535600,60,56.17,91.82,42.8,8.95
453,mount isa,0,AU,1538537400,18,-20.73,139.49,91.4,6.93
454,namatanai,0,PG,1538538919,90,-3.66,152.44,86.39,2.28
455,petatlan,88,MX,1538538830,100,17.52,-101.27,81.71,9.55
456,shepsi,88,RU,1538538919,100,44.04,39.15,69.29,10.11
457,zlobin,0,HR,1538537400,66,45.29,14.65,50.0,3.36
458,kuryk,12,KZ,1538538919,64,43.18,51.68,63.98,11.45
459,kamaishi,20,JP,1538535600,46,39.28,141.86,73.4,6.93
460,kungurtug,76,RU,1538538920,60,50.6,97.53,45.44,4.18
461,cabedelo,40,BR,1538535600,94,-6.97,-34.84,73.4,5.82
462,muscatine,1,US,1538537700,100,41.42,-91.04,64.4,6.93
463,luganville,80,VU,1538538920,100,-15.51,167.18,78.56,11.23
464,okoneshnikovo,64,RU,1538538920,83,54.84,75.08,43.1,7.87
465,richards bay,88,ZA,1538538920,69,-28.77,32.06,67.31,13.24
466,port hardy,5,CA,1538535600,75,50.7,-127.42,41.0,5.82
467,tecoanapa,40,MX,1538534700,79,16.99,-99.26,84.2,10.29
468,rivadavia,0,AR,1538538921,65,-31.53,-68.59,46.25,4.97
469,kieta,76,PG,1538538921,95,-6.22,155.63,82.61,4.18
470,nurota,0,UZ,1538535600,38,40.56,65.69,60.8,4.7
471,massakory,0,TD,1538538921,81,13.0,15.73,73.16,2.84
472,ust-omchug,8,RU,1538538921,86,61.13,149.63,26.72,3.51
473,gol,0,IN,1538538921,50,25.38,72.44,83.87,6.08
474,thinadhoo,64,MV,1538538921,100,0.53,72.93,80.36,21.74
475,natal,40,BR,1538535600,83,-5.81,-35.21,75.2,4.7
476,ngunguru,0,NZ,1538538921,99,-35.62,174.5,60.02,9.55
477,barrhead,0,CA,1538538922,64,54.12,-114.4,27.08,8.77
478,grafton,0,AU,1538538922,63,-29.69,152.93,72.71,3.06
479,kisangani,64,CD,1538538922,100,0.52,25.21,71.81,2.39
480,terra santa,0,BR,1538538922,55,-2.1,-56.49,84.5,5.53
481,pisco,75,PE,1538535600,88,-13.71,-76.2,64.4,4.7
482,sibolga,48,ID,1538538922,88,1.74,98.78,77.84,1.95
483,nossa senhora da gloria,0,BR,1538538922,91,-10.22,-37.42,68.12,6.87
484,touros,88,BR,1538538923,93,-5.2,-35.46,76.04,11.56
485,burnie,0,AU,1538538923,89,-41.05,145.91,58.04,15.37
486,nalut,0,LY,1538538923,90,31.86,10.98,55.43,4.97
487,avera,1,US,1538537700,92,33.19,-82.53,78.08,5.75
488,monzon,5,IT,1538535300,69,46.45,11.69,39.2,9.17
489,dinar,0,TR,1538536800,87,38.07,30.16,48.2,4.7
490,wenling,8,CN,1538538923,85,28.38,121.38,75.41,14.14
491,saint-georges,92,CA,1538538924,97,46.12,-70.67,44.99,6.31
492,narasaraopet,0,IN,1538538924,69,16.24,80.05,86.12,3.96
493,aykhal,88,RU,1538538924,84,65.95,111.51,34.82,8.88
494,delvada,0,IN,1538538924,79,24.01,72.98,82.07,0.6
495,laguna,0,MX,1538538924,67,27.52,-110.01,80.81,3.62
496,ballina,92,IE,1538538924,99,54.11,-9.15,54.08,13.24
497,eyl,76,SO,1538538636,95,7.98,49.82,74.69,11.79
498,biaora,12,IN,1538538924,65,23.92,76.91,77.84,4.52
499,sistranda,75,NO,1538535000,75,63.73,8.83,46.4,25.28
500,coahuayana,0,MX,1538538924,77,18.62,-100.35,69.2,1.95
501,gigmoto,76,PH,1538538925,100,13.78,124.39,82.79,10.45
502,spruce grove,1,CA,1538535600,73,53.55,-113.9,28.4,4.7
503,saint-pierre,90,FR,1538537400,100,48.95,4.24,55.4,6.93
504,general roca,0,AR,1538535600,39,-39.03,-67.58,50.0,12.75
505,twentynine palms,1,US,1538535360,39,34.14,-116.05,87.08,11.41
506,steamboat springs,90,US,1538537700,83,40.48,-106.83,62.06,2.73
507,jawhar,12,IN,1538538926,88,19.91,73.23,80.18,3.74
508,tautira,75,PF,1538537400,65,-17.73,-149.15,78.8,6.93
509,naze,88,NG,1538538926,98,5.43,7.07,72.89,3.18
510,iskateley,92,RU,1538538926,100,67.68,53.15,38.15,10.78
511,kuching,75,MY,1538537400,70,1.56,110.34,87.8,3.36
512,elko,1,US,1538535360,89,40.83,-115.76,51.08,5.82
513,touba,24,SN,1538538927,75,14.86,-15.88,79.1,3.18
514,russkiy kameshkir,12,RU,1538538927,86,52.86,46.09,47.06,14.25
515,yumbel,0,CL,1538535600,81,-37.1,-72.56,46.4,9.17
516,hit,56,IQ,1538538927,50,33.64,42.83,72.44,4.18
517,luwuk,64,ID,1538538927,82,-0.95,122.79,81.62,5.97
518,opunake,12,NZ,1538538927,90,-39.45,173.86,56.78,12.01
519,harper,1,US,1538536500,81,30.3,-99.24,75.92,11.01
520,tendukheda,0,IN,1538537400,69,23.4,79.54,78.8,4.29
521,bani walid,0,LY,1538538928,89,31.76,14.0,62.36,8.77
522,jinja,80,UG,1538538928,99,0.44,33.21,63.44,3.29
523,jacqueville,75,CI,1538537400,94,5.21,-4.42,77.0,3.36
524,surt,0,LY,1538538928,100,31.21,16.59,70.46,10.11
525,honiara,75,SB,1538535600,79,-9.43,159.96,84.2,4.7
526,shubarkuduk,0,KZ,1538538928,48,49.15,56.49,42.29,10.56
527,sur,0,OM,1538538928,92,22.57,59.53,83.33,6.87
528,pindobacu,0,BR,1538538872,74,-10.74,-40.36,72.44,9.55
529,guarapari,75,BR,1538535600,78,-20.67,-40.5,77.0,12.75
530,umm lajj,0,SA,1538538929,100,25.02,37.27,75.68,4.18
531,kadnikov,92,RU,1538538929,96,59.5,40.34,45.26,10.33
532,treinta y tres,0,UY,1538538929,90,-33.23,-54.39,42.11,5.41
533,bridlington,0,GB,1538536800,87,54.08,-0.19,46.4,4.7
534,henties bay,100,NA,1538538929,88,-22.12,14.28,59.66,3.62
535,lamesa,1,US,1538536500,64,32.74,-101.95,73.4,10.29
536,codrington,0,AU,1538538929,68,-28.95,153.24,72.53,3.4
537,hachinohe,40,JP,1538533860,49,40.47,141.48,71.6,18.34
538,takoradi,48,GH,1538538930,99,4.89,-1.75,76.04,5.64
